station_id,pref,station_name,temp,lat,lon
11001,北海道宗谷地方,宗谷岬（ソウヤミサキ）,2.2,45.52,141.935
11016,北海道宗谷地方,稚内（ワッカナイ）,2.2,45.415,141.67833333333334
11046,北海道宗谷地方,礼文（レブン）,3.3,45.305,141.045
11061,北海道宗谷地方,声問（コエトイ）,2.3,45.403333333333336,141.80166666666668
11076,北海道宗谷地方,浜鬼志別（ハマオニシベツ）,1.4,45.335,142.17
11091,北海道宗谷地方,本泊（モトドマリ）,3.1,45.24166666666667,141.18666666666667
11121,北海道宗谷地方,沼川（ヌマカワ）,3.3,45.248333333333335,141.85166666666666
11151,北海道宗谷地方,沓形（クツガタ）,3.7,45.178333333333335,141.13833333333332
11176,北海道宗谷地方,豊富（トヨトミ）,4.1,45.10166666666667,141.78
11206,北海道宗谷地方,浜頓別（ハマトンベツ）,1.3,45.125,142.35
11276,北海道宗谷地方,中頓別（ナカトンベツ）,1.5,44.965,142.28
11291,北海道宗谷地方,北見枝幸（キタミエサシ）,1.8,44.94,142.585
11316,北海道宗谷地方,歌登（ウタノボリ）,3.6,44.84166666666667,142.48
12011,北海道上川地方,中川（ナカガワ）,3.1,44.82833333333333,142.07666666666665
12041,北海道上川地方,音威子府（オトイネップ）,3.4,44.72666666666667,142.265
12141,北海道上川地方,美深（ビフカ）,3.5,44.48,142.34166666666667
12181,北海道上川地方,名寄（ナヨロ）,3.5,44.37,142.45666666666668
12231,北海道上川地方,下川（シモカワ）,3.8,44.295,142.63666666666666
12261,北海道上川地方,士別（シベツ）,3.9,44.18666666666667,142.41666666666666
12266,北海道上川地方,朝日（アサヒ）,3.7,44.11833333333333,142.595
12301,北海道上川地方,和寒（ワッサム）,4.2,44.028333333333336,142.41
12386,北海道上川地方,江丹別（エタンベツ）,5.3,43.87,142.26
12396,北海道上川地方,比布（ピップ）,4.1,43.87,142.47
12411,北海道上川地方,上川（カミカワ）,3.5,43.846666666666664,142.75333333333333
12442,北海道上川地方,旭川（アサヒカワ）,5.5,43.75666666666667,142.37166666666667
12451,北海道上川地方,東川（ヒガシカワ）,3.3,43.70166666666667,142.50833333333333
12501,北海道上川地方,東神楽（ヒガシカグラ）,4.0,43.67,142.44666666666666
12512,北海道上川地方,志比内（シビナイ）,2.6,43.64333333333333,142.58166666666668
12551,北海道上川地方,美瑛（ビエイ）,4.3,43.58833333333333,142.49333333333334
12596,北海道上川地方,上富良野（カミフラノ）,4.6,43.455,142.465
12626,北海道上川地方,富良野（フラノ）,3.8,43.333333333333336,142.4
12632,北海道上川地方,麓郷（ロクゴウ）,4.6,43.30166666666667,142.52166666666668
12691,北海道上川地方,幾寅（イクトラ）,4.3,43.16833333333334,142.56833333333333
12746,北海道上川地方,占冠（シムカップ）,5.8,42.97833333333333,142.395
15041,北海道上川地方,朱鞠内（シュマリナイ）,4.6,44.281666666666666,142.16166666666666
15076,北海道上川地方,幌加内（ホロカナイ）,5.0,44.01,142.16
13061,北海道留萌地方,天塩（テシオ）,3.8,44.89333333333333,141.76166666666666
13086,北海道留萌地方,遠別（エンベツ）,3.7,44.718333333333334,141.80666666666667
13121,北海道留萌地方,初山別（ショサンベツ）,3.4,44.52333333333333,141.77
13146,北海道留萌地方,焼尻（ヤギシリ）,4.5,44.428333333333335,141.42166666666665
13181,北海道留萌地方,羽幌（ハボロ）,4.6,44.36333333333334,141.7
13261,北海道留萌地方,達布（タップ）,5.1,44.04833333333333,141.85666666666665
13277,北海道留萌地方,留萌（ルモイ）,3.8,43.945,141.63166666666666
13311,北海道留萌地方,増毛（マシケ）,3.5,43.848333333333336,141.51
13321,北海道留萌地方,幌糠（ホロヌカ）,4.0,43.85333333333333,141.76
14026,北海道石狩地方,浜益（ハママス）,6.7,43.58166666666666,141.38666666666666
14071,北海道石狩地方,厚田（アツタ）,5.7,43.39666666666667,141.43666666666667
14101,北海道石狩地方,新篠津（シンシノツ）,5.8,43.22,141.645
14116,北海道石狩地方,山口（ヤマグチ）,4.6,43.14833333333333,141.22166666666666
14121,北海道石狩地方,石狩（イシカリ）,4.4,43.193333333333335,141.37
14136,北海道石狩地方,江別（エベツ）,4.7,43.11,141.60166666666666
14163,北海道石狩地方,札幌（サッポロ）,5.2,43.06,141.32833333333335
14163,北海道石狩地方,札幌（サッポロ）,5.2,43.06,141.32666666666665
14206,北海道石狩地方,恵庭島松（エニワシママツ）,4.4,42.92666666666667,141.565
14286,北海道石狩地方,支笏湖畔（シコツコハン）,6.5,42.77166666666667,141.40666666666667
14296,北海道石狩地方,千歳（チトセ）,7.5,42.775,141.69166666666666
15116,北海道空知地方,石狩沼田（イシカリヌマタ）,3.8,43.815,141.92666666666668
15156,北海道空知地方,秩父別（チップベツ）,5.0,43.78,141.96166666666667
15161,北海道空知地方,深川（フカガワ）,3.6,43.718333333333334,142.07333333333332
15231,北海道空知地方,空知吉野（ソラチヨシノ）,5.9,43.595,141.73166666666665
15241,北海道空知地方,滝川（タキカワ）,3.9,43.57,141.93833333333333
15251,北海道空知地方,芦別（アシベツ）,5.9,43.52,142.19
15311,北海道空知地方,月形（ツキガタ）,5.2,43.33,141.61666666666667
15321,北海道空知地方,美唄（ビバイ）,5.3,43.36333333333334,141.82666666666665
15356,北海道空知地方,岩見沢（イワミザワ）,7.0,43.211666666666666,141.785
15431,北海道空知地方,長沼（ナガヌマ）,6.3,43.01166666666666,141.69333333333333
15442,北海道空知地方,夕張（ユウバリ）,5.7,43.038333333333334,141.95666666666668
16026,北海道後志地方,美国（ビクニ）,4.8,43.27166666666667,140.56333333333333
16061,北海道後志地方,神恵内（カモエナイ）,7.1,43.145,140.42333333333335
16076,北海道後志地方,余市（ヨイチ）,4.5,43.181666666666665,140.75833333333333
16091,北海道後志地方,小樽（オタル）,4.7,43.181666666666665,141.015
16156,北海道後志地方,共和（キョウワ）,6.1,42.98,140.60333333333332
16206,北海道後志地方,蘭越（ランコシ）,7.3,42.81,140.54166666666666
16217,北海道後志地方,倶知安（クッチャン）,4.4,42.9,140.75666666666666
16252,北海道後志地方,寿都（スッツ）,5.9,42.795,140.22333333333333
16281,北海道後志地方,真狩（マッカリ）,3.7,42.775,140.88
16286,北海道後志地方,喜茂別（キモベツ）,3.9,42.79333333333334,140.94833333333332
16321,北海道後志地方,黒松内（クロマツナイ）,7.0,42.663333333333334,140.31
17036,北海道網走・北見・紋別地方,雄武（オウム）,1.4,44.58,142.96333333333334
17076,北海道網走・北見・紋別地方,興部（オコッペ）,1.5,44.47,143.10833333333332
17091,北海道網走・北見・紋別地方,西興部（ニシオコッペ）,2.0,44.33166666666666,142.935
17112,北海道網走・北見・紋別地方,紋別（モンベツ）,1.2,44.345,143.355
17116,北海道網走・北見・紋別地方,紋別小向（モンベツコムカイ）,1.2,44.303333333333335,143.40333333333334
17166,北海道網走・北見・紋別地方,湧別（ユウベツ）,0.9,44.21333333333333,143.61833333333334
17196,北海道網走・北見・紋別地方,滝上（タキノウエ）,4.3,44.17666666666667,143.06166666666667
17246,北海道網走・北見・紋別地方,常呂（トコロ）,0.2,44.115,144.03666666666666
17306,北海道網走・北見・紋別地方,遠軽（エンガル）,2.5,44.053333333333335,143.54
17316,北海道網走・北見・紋別地方,佐呂間（サロマ）,1.6,44.01833333333333,143.76
17341,北海道網走・北見・紋別地方,網走（アバシリ）,0.9,44.016666666666666,144.27833333333334
17351,北海道網走・北見・紋別地方,宇登呂（ウトロ）,-0.8,44.05166666666667,144.98166666666665
17482,北海道網走・北見・紋別地方,白滝（シラタキ）,3.6,43.865,143.15333333333334
17501,北海道網走・北見・紋別地方,生田原（イクタハラ）,2.9,43.916666666666664,143.53166666666667
17521,北海道網走・北見・紋別地方,北見（キタミ）,2.9,43.776666666666664,143.84166666666667
17531,北海道網走・北見・紋別地方,女満別（メマンベツ）,1.8,43.88,144.16333333333333
17546,北海道網走・北見・紋別地方,小清水（コシミズ）,0.7,43.84166666666667,144.485
17561,北海道網走・北見・紋別地方,斜里（シャリ）,0.1,43.885,144.7
17596,北海道網走・北見・紋別地方,留辺蘂（ルベシベ）,4.5,43.74166666666667,143.45
17607,北海道網走・北見・紋別地方,境野（サカイノ）,3.7,43.70666666666666,143.64333333333335
17631,北海道網走・北見・紋別地方,美幌（ビホロ）,1.3,43.77,144.17166666666665
17717,北海道網走・北見・紋別地方,津別（ツベツ）,2.2,43.70166666666667,144.03333333333333
18038,北海道根室地方,羅臼（ラウス）,4.3,44.02333333333333,145.18666666666667
18136,北海道根室地方,標津（シベツ）,3.6,43.66166666666667,145.13166666666666
18161,北海道根室地方,上標津（カミシベツ）,2.4,43.52,144.74666666666667
18171,北海道根室地方,中標津（ナカシベツ）,6.7,43.54333333333334,144.97833333333332
18174,北海道根室地方,根室中標津（ネムロナカシベツ）,7.5,43.57666666666667,144.96
18256,北海道根室地方,別海（ベツカイ）,6.9,43.38166666666667,145.11833333333334
18273,北海道根室地方,根室（ネムロ）,3.2,43.33,145.585
18281,北海道根室地方,納沙布（ノサップ）,2.9,43.39333333333333,145.75833333333333
18311,北海道根室地方,厚床（アットコ）,4.5,43.22,145.22666666666666
19021,北海道釧路地方,川湯（カワユ）,1.0,43.61666666666667,144.45666666666668
19051,北海道釧路地方,弟子屈（テシカガ）,1.2,43.51,144.46666666666667
19076,北海道釧路地方,阿寒湖畔（アカンコハン）,1.2,43.43666666666667,144.08333333333334
19151,北海道釧路地方,標茶（シベチャ）,4.3,43.291666666666664,144.58666666666667
19191,北海道釧路地方,鶴居（ツルイ）,7.0,43.23166666666667,144.325
19261,北海道釧路地方,中徹別（ナカテシベツ）,9.2,43.19833333333333,144.14166666666668
19311,北海道釧路地方,榊町（サカキマチ）,5.4,43.12,145.11
19347,北海道釧路地方,鶴丘（ツルオカ）,7.3,43.04,144.19166666666666
19376,北海道釧路地方,太田（オオタ）,4.4,43.09,144.77833333333334
19416,北海道釧路地方,白糠（シラヌカ）,7.4,42.97,144.06166666666667
19432,北海道釧路地方,釧路（クシロ）,8.0,42.985,144.37666666666667
19451,北海道釧路地方,知方学（チッポマナイ）,5.0,42.93833333333333,144.735
20146,北海道十勝地方,陸別（リクベツ）,4.1,43.471666666666664,143.75333333333333
20186,北海道十勝地方,ぬかびら源泉郷（ヌカビラゲンセンキョウ）,7.2,43.36666666666667,143.19166666666666
20266,北海道十勝地方,上士幌（カミシホロ）,7.6,43.24166666666667,143.295
20276,北海道十勝地方,足寄（アショロ）,7.8,43.24333333333333,143.55333333333334
20341,北海道十勝地方,本別（ホンベツ）,8.7,43.13166666666667,143.6
20356,北海道十勝地方,新得（シントク）,7.3,43.07666666666667,142.84
20361,北海道十勝地方,鹿追（シカオイ）,8.3,43.10333333333333,142.995
20371,北海道十勝地方,駒場（コマバ）,8.5,43.05,143.18333333333334
20421,北海道十勝地方,芽室（メムロ）,7.8,42.9,143.04333333333332
20432,北海道十勝地方,帯広（オビヒロ）,9.6,42.92166666666667,143.21166666666667
20432,北海道十勝地方,帯広（オビヒロ）,9.6,42.90833333333333,143.22333333333333
20441,北海道十勝地方,池田（イケダ）,9.7,42.92,143.45833333333334
20506,北海道十勝地方,浦幌（ウラホロ）,11.2,42.80833333333333,143.65666666666667
20551,北海道十勝地方,帯広泉（オビヒロイズミ）,5.7,42.733333333333334,143.21666666666667
20556,北海道十勝地方,糠内（ヌカナイ）,7.3,42.78666666666667,143.32833333333335
20601,北海道十勝地方,上札内（カミサツナイ）,4.4,42.641666666666666,143.09666666666666
20606,北海道十勝地方,更別（サラベツ）,5.6,42.651666666666664,143.195
20631,北海道十勝地方,大津（オオツ）,8.6,42.68666666666667,143.64666666666668
20696,北海道十勝地方,大樹（タイキ）,4.6,42.5,143.27333333333334
20751,北海道十勝地方,広尾（ヒロオ）,5.5,42.29333333333334,143.31666666666666
21111,北海道胆振地方,厚真（アツマ）,7.7,42.73,141.88833333333332
21126,北海道胆振地方,穂別（ホベツ）,10.5,42.76166666666667,142.14333333333335
21161,北海道胆振地方,大滝（オオタキ）,5.7,42.67,141.07833333333335
21171,北海道胆振地方,森野（モリノ）,8.3,42.63,141.24666666666667
21187,北海道胆振地方,苫小牧（トマコマイ）,9.9,42.623333333333335,141.54666666666665
21226,北海道胆振地方,大岸（オオキシ）,9.8,42.59,140.64333333333335
21261,北海道胆振地方,白老（シラオイ）,6.3,42.54333333333334,141.35166666666666
21276,北海道胆振地方,鵡川（ムカワ）,8.1,42.59,141.93333333333334
21297,北海道胆振地方,伊達（ダテ）,10.2,42.475,140.84833333333333
21312,北海道胆振地方,登別（ノボリベツ）,8.5,42.458333333333336,141.11833333333334
21323,北海道胆振地方,室蘭（ムロラン）,9.7,42.31166666666667,140.975
22036,北海道日高地方,日高（ヒダカ）,8.7,42.876666666666665,142.44166666666666
22141,北海道日高地方,日高門別（ヒダカモンベツ）,9.4,42.49666666666667,142.05333333333334
22156,北海道日高地方,新和（シンワ）,12.3,42.54333333333334,142.33333333333334
22241,北海道日高地方,静内（シズナイ）,10.7,42.343333333333334,142.36166666666668
22291,北海道日高地方,三石（ミツイシ）,8.8,42.245,142.66166666666666
22306,北海道日高地方,中杵臼（ナカキネウス）,10.7,42.223333333333336,142.94833333333332
22327,北海道日高地方,浦河（ウラカワ）,6.5,42.16166666666667,142.77666666666667
22391,北海道日高地方,えりも岬（エリモミサキ）,4.5,41.925,143.24333333333334
23031,北海道渡島地方,長万部（オシャマンベ）,7.8,42.516666666666666,140.37333333333333
23086,北海道渡島地方,八雲（ヤクモ）,10.9,42.251666666666665,140.27166666666668
23166,北海道渡島地方,森（モリ）,9.0,42.06666666666667,140.58833333333334
23206,北海道渡島地方,川汲（カックミ）,7.2,41.906666666666666,140.97
23226,北海道渡島地方,北斗（ホクト）,10.8,41.88666666666667,140.65333333333334
23232,北海道渡島地方,函館（ハコダテ）,11.2,41.81666666666667,140.75333333333333
23281,北海道渡島地方,高松（タカマツ）,8.9,41.77,140.82166666666666
23326,北海道渡島地方,木古内（キコナイ）,11.9,41.68,140.43666666666667
23376,北海道渡島地方,松前（マツマエ）,10.6,41.42333333333333,140.08666666666667
24141,北海道渡島地方,熊石（クマイシ）,10.6,42.12833333333333,139.985
24041,北海道檜山地方,せたな（セタナ）,7.6,42.45,139.85166666666666
24051,北海道檜山地方,今金（イマカネ）,9.3,42.428333333333335,140.00833333333333
24101,北海道檜山地方,奥尻（オクシリ）,7.0,42.248333333333335,139.55666666666667
24156,北海道檜山地方,米岡（ヨネオカ）,7.8,42.071666666666665,139.43166666666667
24201,北海道檜山地方,鶉（ウズラ）,9.7,41.93,140.31166666666667
24217,北海道檜山地方,江差（エサシ）,8.5,41.86666666666667,140.12333333333333
31001,青森県,大間（オオマ）,10.4,41.526666666666664,140.91166666666666
31111,青森県,むつ（ムツ）,10.9,41.28333333333333,141.21
31121,青森県,小田野沢（オダノサワ）,11.4,41.235,141.39666666666668
31136,青森県,今別（イマベツ）,10.3,41.18,140.48166666666665
31156,青森県,脇野沢（ワキノサワ）,10.6,41.145,140.82166666666666
31186,青森県,市浦（シウラ）,9.7,41.056666666666665,140.34666666666666
31201,青森県,蟹田（カニタ）,9.6,41.045,140.63333333333333
31296,青森県,五所川原（ゴショガワラ）,8.6,40.80833333333333,140.45833333333334
31312,青森県,青森（アオモリ）,9.8,40.821666666666665,140.76833333333335
31332,青森県,野辺地（ノヘジ）,9.8,40.885,141.16
31336,青森県,六ケ所（ロッカショ）,9.2,40.885,141.27166666666668
31366,青森県,鰺ケ沢（アジガサワ）,8.6,40.776666666666664,140.205
31386,青森県,青森大谷（アオモリオオタニ）,6.6,40.733333333333334,140.68833333333333
31436,青森県,深浦（フカウラ）,8.5,40.645,139.93166666666667
31461,青森県,弘前（ヒロサキ）,9.8,40.611666666666665,140.455
31466,青森県,黒石（クロイシ）,7.9,40.666666666666664,140.585
31482,青森県,酸ケ湯（スカユ）,2.1,40.64833333333333,140.84833333333333
31506,青森県,三沢（ミサワ）,11.8,40.675,141.375
31586,青森県,十和田（トワダ）,13.1,40.60666666666667,141.23333333333332
31602,青森県,八戸（ハチノヘ）,9.6,40.526666666666664,141.52166666666668
31602,青森県,八戸（ハチノヘ）,9.6,40.526666666666664,141.52166666666668
31646,青森県,碇ケ関（イカリガセキ）,8.4,40.48166666666667,140.62
31662,青森県,休屋（ヤスミヤ）,6.5,40.42666666666667,140.89833333333334
31721,青森県,三戸（サンノヘ）,13.3,40.38333333333333,141.25666666666666
32056,秋田県,八森（ハチモリ）,7.8,40.413333333333334,139.94833333333332
32111,秋田県,能代（ノシロ）,9.1,40.19833333333333,140.03166666666667
32126,秋田県,鷹巣（タカノス）,10.4,40.22666666666667,140.37166666666667
32136,秋田県,大館（オオダテ）,9.1,40.251666666666665,140.505
32146,秋田県,鹿角（カヅノ）,8.1,40.215,140.78666666666666
32181,秋田県,脇神（ワキガミ）,8.4,40.19166666666667,140.37166666666667
32206,秋田県,湯瀬（ユゼ）,8.7,40.12,140.84
32266,秋田県,八幡平（ハチマンタイ）,6.2,40.013333333333335,140.80166666666668
32286,秋田県,男鹿（オガ）,8.9,39.91166666666667,139.9
32287,秋田県,大潟（オオガタ）,8.7,40.0,139.95
32296,秋田県,五城目（ゴジョウメ）,9.6,39.93833333333333,140.115
32311,秋田県,阿仁合（アニアイ）,7.8,39.99333333333333,140.40333333333334
32402,秋田県,秋田（アキタ）,8.9,39.71666666666667,140.09833333333333
32407,秋田県,岩見三内（イワミサンナイ）,8.5,39.70666666666666,140.28666666666666
32451,秋田県,雄和（ユウワ）,8.0,39.615,140.21833333333333
32466,秋田県,角館（カクノダテ）,9.7,39.60333333333333,140.55666666666667
32476,秋田県,田沢湖（タザワコ）,7.4,39.69833333333333,140.73166666666665
32496,秋田県,大正寺（ダイショウジ）,9.9,39.526666666666664,140.23333333333332
32551,秋田県,大曲（オオマガリ）,9.3,39.49,140.495
32571,秋田県,本荘（ホンジョウ）,9.7,39.36,140.055
32581,秋田県,東由利（ヒガシユリ）,9.5,39.305,140.28833333333333
32596,秋田県,横手（ヨコテ）,9.5,39.32,140.555
32616,秋田県,にかほ（ニカホ）,8.9,39.255,139.91333333333333
32626,秋田県,矢島（ヤシマ）,9.7,39.235,140.13666666666666
32691,秋田県,湯沢（ユザワ）,9.3,39.18666666666667,140.46333333333334
32771,秋田県,湯の岱（ユノタイ）,7.6,38.96,140.52833333333334
33006,岩手県,種市（タネイチ）,8.9,40.403333333333336,141.7
33026,岩手県,軽米（カルマイ）,12.5,40.325,141.46666666666667
33071,岩手県,二戸（ニノヘ）,12.4,40.29833333333333,141.29833333333335
33136,岩手県,山形（ヤマガタ）,11.5,40.14833333333333,141.57166666666666
33146,岩手県,久慈（クジ）,12.8,40.16833333333334,141.74833333333333
33166,岩手県,荒屋（アラヤ）,9.2,40.10333333333333,141.05
33176,岩手県,奥中山（オクナカヤマ）,9.3,40.06,141.225
33186,岩手県,葛巻（クズマキ）,10.8,40.04,141.45666666666668
33206,岩手県,普代（フダイ）,8.7,40.00333333333333,141.88333333333333
33226,岩手県,岩手松尾（イワテマツオ）,11.2,39.95166666666667,141.065
33296,岩手県,好摩（コウマ）,12.9,39.86833333333333,141.16666666666666
33326,岩手県,岩泉（イワイズミ）,13.3,39.846666666666664,141.795
33336,岩手県,小本（オモト）,8.4,39.846666666666664,141.96333333333334
33371,岩手県,薮川（ヤブカワ）,7.1,39.78333333333333,141.32833333333335
33421,岩手県,雫石（シズクイシ）,10.8,39.696666666666665,140.975
33431,岩手県,盛岡（モリオカ）,12.6,39.69833333333333,141.165
33441,岩手県,区界（クザカイ）,6.8,39.65,141.35333333333332
33472,岩手県,宮古（ミヤコ）,8.2,39.64666666666667,141.965
33486,岩手県,沢内（サワウチ）,7.9,39.54833333333333,140.84333333333333
33501,岩手県,紫波（シワ）,13.1,39.54666666666667,141.12666666666667
33526,岩手県,川井（カワイ）,14.2,39.598333333333336,141.68166666666667
33576,岩手県,花巻（ハナマキ）,13.3,39.428333333333335,141.135
33581,岩手県,大迫（オオハサマ）,12.9,39.47,141.27833333333334
33616,岩手県,山田（ヤマダ）,11.2,39.45,141.95666666666668
33631,岩手県,湯田（ユダ）,7.0,39.31,140.77666666666667
33671,岩手県,遠野（トオノ）,11.9,39.33833333333333,141.54333333333332
33716,岩手県,北上（キタカミ）,11.6,39.288333333333334,141.11
33751,岩手県,釜石（カマイシ）,8.7,39.27,141.87833333333333
33776,岩手県,若柳（ワカヤナギ）,12.1,39.14,141.06333333333333
33781,岩手県,江刺（エサシ）,13.0,39.18333333333333,141.16166666666666
33801,岩手県,住田（スミタ）,12.6,39.141666666666666,141.57333333333332
33877,岩手県,大船渡（オオフナト）,10.2,39.06333333333333,141.71333333333334
33911,岩手県,一関（イチノセキ）,13.9,38.93333333333333,141.125
33921,岩手県,千厩（センマヤ）,12.9,38.92166666666667,141.33
34012,宮城県,駒ノ湯（コマノユ）,8.3,38.913333333333334,140.82833333333335
34026,宮城県,気仙沼（ケセンヌマ）,12.1,38.906666666666666,141.55666666666667
34096,宮城県,川渡（カワタビ）,12.6,38.74333333333333,140.76
34111,宮城県,築館（ツキダテ）,14.6,38.735,141.005
34171,宮城県,米山（ヨネヤマ）,14.8,38.625,141.18666666666667
34186,宮城県,志津川（シヅガワ）,13.0,38.681666666666665,141.44833333333332
34216,宮城県,古川（フルカワ）,13.0,38.598333333333336,140.91166666666666
34266,宮城県,大衡（オオヒラ）,13.0,38.473333333333336,140.88833333333332
34276,宮城県,鹿島台（カシマダイ）,13.4,38.46,141.09166666666667
34292,宮城県,石巻（イシノマキ）,13.0,38.42666666666667,141.29833333333335
34296,宮城県,女川（オナガワ）,12.0,38.446666666666665,141.45
34311,宮城県,新川（ニッカワ）,10.6,38.303333333333335,140.63666666666666
34331,宮城県,塩釜（シオガマ）,12.5,38.33833333333333,141.01333333333332
34392,宮城県,仙台（センダイ）,14.5,38.26166666666666,140.89666666666668
34436,宮城県,名取（ナトリ）,12.4,38.138333333333335,140.91666666666666
34461,宮城県,白石（シロイシ）,14.7,38.015,140.61166666666668
34462,宮城県,蔵王（ザオウ）,14.2,38.126666666666665,140.68
34471,宮城県,亘理（ワタリ）,12.5,38.025,140.85833333333332
34506,宮城県,丸森（マルモリ）,15.2,37.931666666666665,140.77833333333334
35002,山形県,飛島（トビシマ）,10.2,39.18333333333333,139.54333333333332
35052,山形県,酒田（サカタ）,9.1,38.90833333333333,139.84333333333333
35071,山形県,差首鍋（サスナベ）,8.6,38.91833333333334,140.2
35086,山形県,浜中（ハマナカ）,9.3,38.81166666666667,139.78666666666666
35116,山形県,金山（カネヤマ）,7.5,38.87833333333333,140.33166666666668
35141,山形県,鶴岡（ツルオカ）,9.8,38.735,139.82833333333335
35146,山形県,狩川（カリカワ）,9.8,38.8,139.97333333333333
35162,山形県,新庄（シンジョウ）,9.2,38.75666666666667,140.31166666666667
35176,山形県,向町（ムカイマチ）,9.1,38.75833333333333,140.51666666666668
35216,山形県,肘折（ヒジオリ）,7.2,38.60666666666667,140.16333333333333
35231,山形県,尾花沢（オバナザワ）,7.7,38.608333333333334,140.41166666666666
35246,山形県,鼠ケ関（ネズガセキ）,8.6,38.56666666666667,139.55166666666668
35332,山形県,村山（ムラヤマ）,12.1,38.46,140.34833333333333
35334,山形県,東根（ヒガシネ）,11.3,38.41166666666667,140.37
35361,山形県,大井沢（オオイサワ）,6.8,38.39,139.99333333333334
35376,山形県,左沢（アテラザワ）,12.0,38.37,140.19166666666666
35426,山形県,山形（ヤマガタ）,11.8,38.255,140.345
35456,山形県,長井（ナガイ）,10.0,38.105,140.015
35486,山形県,小国（オグニ）,7.4,38.07833333333333,139.735
35511,山形県,高畠（タカハタ）,10.5,38.00333333333333,140.20666666666668
35541,山形県,高峰（タカミネ）,7.6,37.99,139.95333333333335
35552,山形県,米沢（ヨネザワ）,10.4,37.91166666666667,140.14333333333335
36056,福島県,茂庭（モニワ）,10.4,37.891666666666666,140.43666666666667
36066,福島県,梁川（ヤナガワ）,13.5,37.85166666666667,140.58833333333334
36106,福島県,桧原（ヒバラ）,5.5,37.721666666666664,140.05833333333334
36127,福島県,福島（フクシマ）,13.0,37.75833333333333,140.47
36127,福島県,福島（フクシマ）,13.0,37.76833333333333,140.435
36151,福島県,相馬（ソウマ）,12.1,37.78333333333333,140.925
36176,福島県,喜多方（キタカタ）,10.7,37.65833333333333,139.86333333333334
36196,福島県,鷲倉（ワシクラ）,2.8,37.66833333333334,140.26
36221,福島県,飯舘（イイタテ）,10.4,37.665,140.72666666666666
36251,福島県,西会津（ニシアイヅ）,9.9,37.58833333333333,139.65666666666667
36276,福島県,猪苗代（イナワシロ）,7.7,37.55166666666667,140.10833333333332
36291,福島県,二本松（ニホンマツ）,11.9,37.583333333333336,140.43
36342,福島県,金山（カネヤマ）,7.9,37.473333333333336,139.52833333333334
36361,福島県,若松（ワカマツ）,11.6,37.48833333333334,139.91
36391,福島県,船引（フネヒキ）,11.1,37.435,140.57666666666665
36411,福島県,浪江（ナミエ）,10.9,37.49166666666667,140.965
36426,福島県,只見（タダミ）,7.0,37.343333333333334,139.31333333333333
36476,福島県,郡山（コオリヤマ）,11.1,37.36833333333333,140.33
36501,福島県,川内（カワウチ）,12.4,37.336666666666666,140.80833333333334
36536,福島県,南郷（ナンゴウ）,6.4,37.265,139.53666666666666
36562,福島県,湯本（ユモト）,9.4,37.276666666666664,140.06333333333333
36581,福島県,玉川（タマカワ）,10.8,37.22666666666667,140.42666666666668
36591,福島県,小野新町（オノニイマチ）,10.6,37.28666666666667,140.625
36611,福島県,広野（ヒロノ）,10.8,37.233333333333334,141.0
36641,福島県,田島（タジマ）,8.2,37.20666666666666,139.795
36667,福島県,白河（シラカワ）,12.3,37.13166666666667,140.215
36676,福島県,石川（イシカワ）,12.6,37.14666666666667,140.46
36716,福島県,桧枝岐（ヒノエマタ）,4.2,37.01,139.375
36821,福島県,東白川（ヒガシシラカワ）,13.0,36.93833333333333,140.40833333333333
36836,福島県,山田（ヤマダ）,14.6,36.93333333333333,140.73333333333332
36846,福島県,小名浜（オナハマ）,11.8,36.946666666666665,140.90333333333334
36846,福島県,小名浜（オナハマ）,11.8,36.96333333333333,140.88333333333333
40046,茨城県,北茨城（キタイバラキ）,12.6,36.833333333333336,140.77166666666668
40061,茨城県,大子（ダイゴ）,15.0,36.778333333333336,140.345
40091,茨城県,常陸大宮（ヒタチオオミヤ）,15.3,36.60666666666667,140.325
40136,茨城県,日立（ヒタチ）,12.3,36.58,140.645
40191,茨城県,笠間（カサマ）,14.4,36.395,140.24
40201,茨城県,水戸（ミト）,13.4,36.38,140.46666666666667
40221,茨城県,古河（コガ）,15.1,36.20166666666667,139.71666666666667
40231,茨城県,下館（シモダテ）,16.1,36.281666666666666,139.98833333333334
40281,茨城県,下妻（シモツマ）,15.8,36.16833333333334,139.945
40311,茨城県,鉾田（ホコタ）,14.3,36.16833333333334,140.52666666666667
40336,茨城県,つくば（ツクバ）(館野（タテノ）),14.2,36.056666666666665,140.125
40341,茨城県,土浦（ツチウラ）,13.8,36.10333333333333,140.22
40406,茨城県,鹿嶋（カシマ）,12.1,35.96333333333333,140.62166666666667
40426,茨城県,龍ケ崎（リュウガサキ）,13.9,35.89,140.21166666666667
41011,栃木県,那須高原（ナスコウゲン）,10.5,37.123333333333335,140.035
41076,栃木県,五十里（イカリ）,7.3,36.92166666666667,139.695
41091,栃木県,黒磯（クロイソ）,11.9,36.98166666666667,140.01833333333335
41116,栃木県,土呂部（ドロブ）,9.4,36.891666666666666,139.56833333333333
41141,栃木県,大田原（オオタワラ）,15.2,36.84,140.035
41166,栃木県,奥日光（オクニッコウ）(日光（ニツコウ）),6.8,36.73833333333333,139.5
41172,栃木県,日光東町（ニッコウヒガシマチ）,13.0,36.75,139.615
41181,栃木県,塩谷（シオヤ）,15.3,36.75666666666667,139.88333333333333
41247,栃木県,那須烏山（ナスカラスヤマ）,15.9,36.641666666666666,140.11666666666667
41271,栃木県,鹿沼（カヌマ）,15.2,36.59166666666667,139.735
41277,栃木県,宇都宮（ウツノミヤ）,16.2,36.54833333333333,139.86833333333334
41331,栃木県,真岡（モオカ）,16.2,36.47666666666667,139.98666666666668
41361,栃木県,佐野（サノ）,15.8,36.36333333333334,139.57
41376,栃木県,小山（オヤマ）,16.8,36.33833333333333,139.83
42046,群馬県,藤原（フジワラ）,5.2,36.86333333333333,139.05833333333334
42091,群馬県,みなかみ（ミナカミ）,9.4,36.77333333333333,138.965
42121,群馬県,草津（クサツ）,8.0,36.61666666666667,138.59166666666667
42146,群馬県,沼田（ヌマタ）,10.8,36.66833333333334,139.02166666666668
42186,群馬県,中之条（ナカノジョウ）,12.1,36.586666666666666,138.85
42221,群馬県,田代（タシロ）,7.0,36.46333333333333,138.46333333333334
42251,群馬県,前橋（マエバシ）,16.1,36.405,139.06
42251,群馬県,前橋（マエバシ）,16.1,36.38666666666666,139.03833333333333
42266,群馬県,桐生（キリュウ）,17.3,36.41,139.325
42286,群馬県,上里見（カミサトミ）,17.1,36.376666666666665,138.895
42302,群馬県,伊勢崎（イセサキ）,16.8,36.33166666666666,139.165
42326,群馬県,西野牧（ニシノマキ）,16.2,36.245,138.70666666666668
42366,群馬県,館林（タテバヤシ）,15.8,36.24,139.51333333333332
42396,群馬県,神流（カンナ）,16.1,36.108333333333334,138.89666666666668
43051,埼玉県,寄居（ヨリイ）,16.0,36.105,139.18333333333334
43056,埼玉県,熊谷（クマガヤ）,16.4,36.15,139.38
43126,埼玉県,久喜（クキ）,14.8,36.086666666666666,139.635
43156,埼玉県,秩父（チチブ）,16.2,35.99,139.07333333333332
43171,埼玉県,鳩山（ハトヤマ）,15.8,35.985,139.335
43241,埼玉県,さいたま（サイタマ）,14.8,35.875,139.58666666666667
43256,埼玉県,越谷（コシガヤ）,15.7,35.88333333333333,139.75666666666666
43266,埼玉県,所沢（トコロザワ）,15.1,35.77333333333333,139.41333333333333
44046,東京都,小河内（オゴウチ）,13.4,35.791666666666664,139.05
44056,東京都,青梅（オウメ）,15.0,35.788333333333334,139.31166666666667
44071,東京都,練馬（ネリマ）,15.1,35.73833333333333,139.59166666666667
44112,東京都,八王子（ハチオウジ）,14.5,35.666666666666664,139.31666666666666
44116,東京都,府中（フチュウ）,14.8,35.68333333333333,139.48333333333332
44132,東京都,東京（トウキョウ）,15.7,35.69166666666667,139.75
44132,東京都,東京（トウキョウ）,15.7,35.69166666666667,139.75166666666667
44136,東京都,江戸川臨海（エドガワリンカイ）,14.1,35.638333333333335,139.86333333333334
44166,東京都,羽田（ハネダ）,12.6,35.553333333333335,139.78
44172,東京都,大島（オオシマ）,13.7,34.748333333333335,139.36166666666668
44173,東京都,大島北ノ山（オオシマキタノヤマ）,13.8,34.781666666666666,139.36
44207,東京都,新島（ニイジマ）,13.2,34.36833333333333,139.26833333333335
44216,東京都,神津島（コウヅシマ）,11.9,34.18833333333333,139.13333333333333
44226,東京都,三宅島（ミヤケジマ）,12.4,34.123333333333335,139.52
44228,東京都,三宅坪田（ミヤケツボタ）,14.2,34.07333333333333,139.56
44262,東京都,八重見ヶ原（ヤエミガハラ）,13.9,33.115,139.785
44263,東京都,八丈島（ハチジョウジマ）,13.3,33.12166666666667,139.77833333333334
44263,東京都,八丈島（ハチジョウジマ）,13.3,33.10333333333333,139.78333333333333
44301,東京都,父島（チチジマ）,19.6,27.091666666666665,142.19
45061,千葉県,我孫子（アビコ）,14.4,35.86333333333333,140.11
45081,千葉県,香取（カトリ）,12.5,35.858333333333334,140.50166666666667
45106,千葉県,船橋（フナバシ）,13.8,35.711666666666666,140.04333333333332
45116,千葉県,佐倉（サクラ）,13.6,35.72833333333333,140.21166666666667
45121,千葉県,成田（ナリタ）,12.9,35.763333333333335,140.385
45148,千葉県,銚子（チョウシ）,11.4,35.73833333333333,140.85666666666665
45148,千葉県,銚子（チョウシ）,11.4,35.72,140.85666666666665
45181,千葉県,横芝光（ヨコシバヒカリ）,12.6,35.655,140.505
45212,千葉県,千葉（チバ）,13.8,35.60166666666667,140.10333333333332
45261,千葉県,茂原（モバラ）,13.2,35.43666666666667,140.29333333333332
45282,千葉県,木更津（キサラヅ）,13.9,35.361666666666665,139.94
45291,千葉県,牛久（ウシク）,13.5,35.39666666666667,140.14833333333334
45326,千葉県,坂畑（サカハタ）,12.9,35.235,140.09833333333333
45361,千葉県,鴨川（カモガワ）,14.3,35.111666666666665,140.1
45371,千葉県,勝浦（カツウラ）,13.1,35.15,140.31166666666667
45401,千葉県,館山（タテヤマ）,14.6,34.986666666666665,139.865
46091,神奈川県,海老名（エビナ）,14.6,35.43333333333333,139.38666666666666
46106,神奈川県,横浜（ヨコハマ）,14.0,35.43833333333333,139.65166666666667
46141,神奈川県,辻堂（ツジドウ）,14.8,35.32,139.45
46166,神奈川県,小田原（オダワラ）,15.7,35.276666666666664,139.155
46211,神奈川県,三浦（ミウラ）,13.7,35.178333333333335,139.63
48031,長野県,野沢温泉（ノザワオンセン）,5.0,36.91166666666667,138.44166666666666
48061,長野県,信濃町（シナノマチ）,5.0,36.80833333333333,138.19666666666666
48066,長野県,飯山（イイヤマ）,8.9,36.875,138.375
48141,長野県,白馬（ハクバ）,8.0,36.69833333333333,137.86166666666668
48156,長野県,長野（ナガノ）,10.0,36.66166666666667,138.19166666666666
48191,長野県,大町（オオマチ）,8.9,36.52333333333333,137.83166666666668
48196,長野県,信州新町（シンシュウシンマチ）,10.9,36.54833333333333,137.99666666666667
48216,長野県,菅平（スガダイラ）,2.8,36.531666666666666,138.325
48256,長野県,上田（ウエダ）,12.7,36.4,138.265
48296,長野県,穂高（ホタカ）,11.4,36.343333333333334,137.88166666666666
48321,長野県,東御（トウミ）,10.5,36.38333333333333,138.38333333333333
48331,長野県,軽井沢（カルイザワ）,9.0,36.34166666666667,138.54666666666665
48331,長野県,軽井沢（カルイザワ）,9.0,36.335,138.56333333333333
48361,長野県,松本（マツモト）,11.6,36.24666666666667,137.97
48363,長野県,松本今井（マツモトイマイ）,11.3,36.166666666666664,137.92166666666665
48381,長野県,立科（タテシナ）,10.4,36.27166666666667,138.31333333333333
48386,長野県,佐久（サク）,11.5,36.24666666666667,138.47666666666666
48466,長野県,奈川（ナガワ）,9.5,36.08833333333333,137.68333333333334
48491,長野県,諏訪（スワ）,9.4,36.045,138.10833333333332
48491,長野県,諏訪（スワ）,9.4,36.04,138.10166666666666
48531,長野県,開田高原（カイダコウゲン）,9.5,35.93833333333333,137.60166666666666
48536,長野県,木祖薮原（キソヤブハラ）,9.9,35.93666666666667,137.78666666666666
48546,長野県,辰野（タツノ）,11.7,35.983333333333334,137.98333333333332
48561,長野県,原村（ハラムラ）,10.0,35.97,138.22
48571,長野県,野辺山（ノベヤマ）,7.3,35.94833333333333,138.47166666666666
48606,長野県,木曽福島（キソフクシマ）,14.9,35.84,137.68833333333333
48621,長野県,伊那（イナ）,13.2,35.825,137.955
48717,長野県,南木曽（ナギソ）,16.3,35.61,137.62
48731,長野県,飯島（イイジマ）,13.5,35.653333333333336,137.89833333333334
48767,長野県,飯田（イイダ）,16.5,35.52333333333333,137.82166666666666
48826,長野県,浪合（ナミアイ）,14.4,35.373333333333335,137.69166666666666
48841,長野県,南信濃（ミナミシナノ）,17.9,35.321666666666665,137.93166666666667
49036,山梨県,大泉（オオイズミ）,14.2,35.861666666666665,138.38666666666666
49086,山梨県,韮崎（ニラサキ）,18.6,35.693333333333335,138.44833333333332
49142,山梨県,甲府（コウフ）,18.4,35.666666666666664,138.55333333333334
49151,山梨県,勝沼（カツヌマ）,18.2,35.663333333333334,138.725
49161,山梨県,大月（オオツキ）,15.3,35.608333333333334,138.93833333333333
49196,山梨県,古関（フルセキ）,16.8,35.528333333333336,138.615
49236,山梨県,切石（キリイシ）,18.0,35.46666666666667,138.44166666666666
49251,山梨県,河口湖（カワグチコ）,13.3,35.5,138.76
49256,山梨県,山中（ヤマナカ）,12.4,35.43666666666667,138.83666666666667
49316,山梨県,南部（ナンブ）,17.2,35.288333333333334,138.445
50106,静岡県,井川（イカワ）,14.5,35.21666666666667,138.22166666666666
50136,静岡県,御殿場（ゴテンバ）,14.4,35.305,138.92666666666668
50196,静岡県,富士（フジ）,15.3,35.185,138.66333333333333
50206,静岡県,三島（ミシマ）,16.1,35.11333333333334,138.925
50226,静岡県,佐久間（サクマ）,18.3,35.056666666666665,137.76166666666666
50241,静岡県,川根本町（カワネホンチョウ）,17.1,35.10166666666667,138.12833333333333
50261,静岡県,清水（シミズ）,16.1,35.053333333333335,138.52166666666668
50281,静岡県,網代（アジロ）,15.6,35.045,139.09166666666667
50331,静岡県,静岡（シズオカ）,16.3,34.975,138.40333333333334
50386,静岡県,天竜（テンリュウ）,15.7,34.89,137.81333333333333
50456,静岡県,浜松（ハママツ）,15.5,34.75333333333333,137.71166666666667
50476,静岡県,菊川牧之原（キクガワマキノハラ）,15.2,34.785,138.13833333333332
50477,静岡県,静岡空港（シズオカクウコウ）,15.7,34.795,138.18833333333333
50491,静岡県,松崎（マツザキ）,16.5,34.755,138.78333333333333
50506,静岡県,稲取（イナトリ）,12.2,34.781666666666666,139.04833333333335
50536,静岡県,磐田（イワタ）,13.8,34.69166666666667,137.88
50551,静岡県,御前崎（オマエザキ）,14.9,34.60333333333333,138.21333333333334
50561,静岡県,石廊崎（イロウザキ）,12.3,34.60333333333333,138.84166666666667
51031,愛知県,愛西（アイサイ）,16.8,35.21666666666667,136.69833333333332
51071,愛知県,稲武（イナブ）,14.9,35.211666666666666,137.50666666666666
51106,愛知県,名古屋（ナゴヤ）,17.4,35.166666666666664,136.965
51116,愛知県,豊田（トヨタ）,17.6,35.13166666666667,137.17666666666668
51216,愛知県,大府（オオブ）,17.0,34.995,136.94333333333333
51226,愛知県,岡崎（オカザキ）,17.1,34.91833333333334,137.19333333333333
51247,愛知県,新城（シンシロ）,17.9,34.906666666666666,137.51833333333335
51261,愛知県,セントレア（セントレア）,14.0,34.858333333333334,136.805
51281,愛知県,蒲郡（ガマゴオリ）,17.1,34.845,137.21666666666667
51311,愛知県,南知多（ミナミチタ）,15.8,34.74,136.93833333333333
51331,愛知県,豊橋（トヨハシ）,15.6,34.75,137.34166666666667
51346,愛知県,伊良湖（イラコ）,15.0,34.62833333333333,137.09333333333333
52041,岐阜県,河合（カワイ）,8.0,36.305,137.1
52051,岐阜県,神岡（カミオカ）,8.4,36.321666666666665,137.30833333333334
52081,岐阜県,白川（シラカワ）,7.5,36.27333333333333,136.89666666666668
52111,岐阜県,栃尾（トチオ）,7.9,36.248333333333335,137.50333333333333
52146,岐阜県,高山（タカヤマ）,10.0,36.155,137.25333333333333
52181,岐阜県,六厩（ムマヤ）,7.5,36.06,137.035
52196,岐阜県,宮之前（ミヤノマエ）,8.3,36.015,137.38833333333332
52221,岐阜県,長滝（ナガタキ）,13.5,35.92333333333333,136.83166666666668
52286,岐阜県,萩原（ハギワラ）,13.1,35.888333333333335,137.20666666666668
52331,岐阜県,八幡（ハチマン）,17.4,35.75666666666667,136.97833333333332
52346,岐阜県,宮地（ミヤジ）,13.4,35.763333333333335,137.28833333333333
52381,岐阜県,樽見（タルミ）,12.5,35.638333333333335,136.60166666666666
52406,岐阜県,金山（カナヤマ）,17.5,35.66166666666667,137.16
52461,岐阜県,美濃（ミノ）,18.4,35.555,136.91
52482,岐阜県,黒川（クロカワ）,15.2,35.598333333333336,137.31833333333333
52511,岐阜県,揖斐川（イビガワ）,15.4,35.485,136.56666666666666
52536,岐阜県,美濃加茂（ミノカモ）,17.0,35.445,137.005
52556,岐阜県,恵那（エナ）,17.9,35.446666666666665,137.40333333333334
52557,岐阜県,中津川（ナカツガワ）,17.9,35.47666666666667,137.48666666666668
52571,岐阜県,関ケ原（セキガハラ）,13.5,35.36333333333334,136.46666666666667
52581,岐阜県,大垣（オオガキ）,15.5,35.346666666666664,136.62
52586,岐阜県,岐阜（ギフ）,17.5,35.4,136.76166666666666
52606,岐阜県,多治見（タジミ）,18.1,35.346666666666664,137.10833333333332
53041,三重県,桑名（クワナ）,17.6,35.05,136.69333333333333
53061,三重県,四日市（ヨッカイチ）,16.3,34.94,136.58
53091,三重県,亀山（カメヤマ）,13.9,34.87,136.45333333333335
53112,三重県,上野（ウエノ）,14.7,34.76166666666667,136.14166666666668
53133,三重県,津（ツ）,15.0,34.733333333333334,136.51833333333335
53133,三重県,津（ツ）,15.0,34.721666666666664,136.525
53196,三重県,小俣（オバタ）,16.5,34.528333333333336,136.665
53231,三重県,粥見（カユミ）,16.2,34.44833333333333,136.39
53257,三重県,鳥羽（トバ）,13.8,34.48166666666667,136.825
53296,三重県,南伊勢（ミナミイセ）,17.1,34.345,136.68166666666667
53326,三重県,紀伊長島（キイナガシマ）,18.6,34.208333333333336,136.32666666666665
53378,三重県,尾鷲（オワセ）,18.9,34.068333333333335,136.19333333333333
53401,三重県,熊野新鹿（クマノアタシカ）,16.1,33.931666666666665,136.13833333333332
54012,新潟県,粟島（アワシマ）,8.7,38.465,139.25333333333333
54041,新潟県,弾崎（ハジキザキ）,9.3,38.33,138.51166666666666
54086,新潟県,村上（ムラカミ）,9.1,38.22666666666667,139.47833333333332
54157,新潟県,相川（アイカワ）,8.5,38.028333333333336,138.24
54166,新潟県,両津（リョウツ）,9.9,38.07333333333333,138.44
54181,新潟県,中条（ナカジョウ）,8.6,38.07666666666667,139.38833333333332
54191,新潟県,下関（シモセキ）,8.1,38.09166666666667,139.56333333333333
54232,新潟県,新潟（ニイガタ）,9.5,37.89333333333333,139.01833333333335
54232,新潟県,新潟（ニイガタ）,9.5,37.888333333333335,139.04833333333335
54236,新潟県,松浜（マツハマ）,8.8,37.955,139.11166666666668
54271,新潟県,羽茂（ハモチ）,8.3,37.84166666666667,138.31333333333333
54296,新潟県,新津（ニイツ）,10.0,37.791666666666664,139.08666666666667
54341,新潟県,巻（マキ）,9.4,37.76833333333333,138.91333333333333
54387,新潟県,寺泊（テラドマリ）,10.1,37.64,138.76666666666668
54396,新潟県,三条（サンジョウ）,8.9,37.64,138.955
54421,新潟県,津川（ツガワ）,9.3,37.67166666666667,139.44666666666666
54501,新潟県,長岡（ナガオカ）,8.7,37.45,138.82333333333332
54541,新潟県,柏崎（カシワザキ）,9.2,37.35166666666667,138.55333333333334
54566,新潟県,守門（スモン）,6.6,37.346666666666664,139.04333333333332
54586,新潟県,大潟（オオガタ）,9.8,37.225,138.325
54616,新潟県,小出（コイデ）,9.1,37.22666666666667,138.96333333333334
54651,新潟県,高田（タカダ）,9.2,37.10666666666667,138.24666666666667
54661,新潟県,安塚（ヤスヅカ）,7.4,37.10666666666667,138.45666666666668
54676,新潟県,十日町（トオカマチ）,7.7,37.14333333333333,138.72666666666666
54711,新潟県,糸魚川（イトイガワ）,9.9,37.04333333333334,137.875
54721,新潟県,能生（ノウ）,8.9,37.083333333333336,138.02333333333334
54816,新潟県,関山（セキヤマ）,6.6,36.93333333333333,138.22166666666666
54836,新潟県,津南（ツナン）,5.8,36.99666666666667,138.68333333333334
54841,新潟県,湯沢（ユザワ）,7.0,36.94166666666667,138.81
55022,富山県,朝日（アサヒ）,9.5,36.93666666666667,137.56333333333333
55041,富山県,氷見（ヒミ）,10.1,36.825,136.96833333333333
55056,富山県,魚津（ウオヅ）,10.4,36.821666666666665,137.42833333333334
55091,富山県,伏木（フシキ）,10.0,36.791666666666664,137.055
55102,富山県,富山（トヤマ）,10.7,36.708333333333336,137.20166666666665
55141,富山県,砺波（トナミ）,8.7,36.61,136.955
55151,富山県,秋ヶ島（アキガシマ）,10.5,36.64833333333333,137.18666666666667
55166,富山県,上市（カミイチ）,6.9,36.67,137.42333333333335
55191,富山県,南砺高宮（ナントタカミヤ）,8.5,36.545,136.87166666666667
55206,富山県,八尾（ヤツオ）,8.9,36.57,137.15833333333333
56036,石川県,珠洲（スズ）,9.4,37.446666666666665,137.28666666666666
56052,石川県,輪島（ワジマ）,9.7,37.39,136.895
56093,石川県,三井（ミイ）,8.6,37.29333333333334,136.96166666666667
56116,石川県,志賀（シカ）,10.0,37.14333333333333,136.725
56146,石川県,七尾（ナナオ）,9.9,37.03,136.99166666666667
56176,石川県,羽咋（ハクイ）,10.5,36.89333333333333,136.77666666666667
56186,石川県,かほく（カホク）,9.5,36.711666666666666,136.69166666666666
56227,石川県,金沢（カナザワ）,10.6,36.58833333333333,136.63333333333333
56276,石川県,小松（コマツ）,10.6,36.38166666666667,136.435
56286,石川県,白山河内（ハクサンカワチ）,10.3,36.39666666666667,136.62
56301,石川県,加賀中津原（カガナカツハラ）,10.0,36.26166666666666,136.39666666666668
57001,福井県,三国（ミクニ）,11.1,36.24333333333333,136.17333333333335
57026,福井県,春江（ハルエ）,10.5,36.141666666666666,136.22333333333333
57051,福井県,越廼（コシノ）,10.0,36.01166666666666,135.99
57066,福井県,福井（フクイ）,11.7,36.055,136.22166666666666
57082,福井県,勝山（カツヤマ）,11.7,36.038333333333334,136.52166666666668
57121,福井県,大野（オオノ）,11.9,35.971666666666664,136.49666666666667
57206,福井県,今庄（イマジョウ）,10.2,35.766666666666666,136.2
57248,福井県,敦賀（ツルガ）,12.3,35.653333333333336,136.06166666666667
57286,福井県,美浜（ミハマ）,10.9,35.6,135.91666666666666
57317,福井県,小浜（オバマ）,10.5,35.483333333333334,135.78166666666667
60051,滋賀県,今津（イマヅ）,11.9,35.41166666666667,136.02833333333334
60061,滋賀県,長浜（ナガハマ）,12.7,35.42333333333333,136.24166666666667
60102,滋賀県,米原（マイバラ）,11.1,35.38333333333333,136.34333333333333
60116,滋賀県,南小松（ミナミコマツ）,12.4,35.235,135.95666666666668
60131,滋賀県,彦根（ヒコネ）,11.0,35.275,136.24333333333334
60196,滋賀県,東近江（ヒガシオウミ）,13.0,35.06166666666667,136.19
60216,滋賀県,大津（オオツ）,13.6,34.99166666666667,135.91166666666666
60226,滋賀県,信楽（シガラキ）,12.4,34.913333333333334,136.08
60236,滋賀県,土山（ツチヤマ）,12.8,34.93833333333333,136.27833333333334
61001,京都府,間人（タイザ）,8.9,35.736666666666665,135.08666666666667
61076,京都府,宮津（ミヤヅ）,10.5,35.55,135.235
61111,京都府,舞鶴（マイヅル）,9.4,35.45,135.31666666666666
61187,京都府,福知山（フクチヤマ）,11.1,35.31166666666667,135.11333333333334
61206,京都府,美山（ミヤマ）,8.2,35.275,135.55
61242,京都府,園部（ソノベ）,9.4,35.108333333333334,135.455
61286,京都府,京都（キョウト）,12.6,35.013333333333335,135.73166666666665
61286,京都府,京都（キョウト）,12.6,35.01166666666666,135.735
61326,京都府,京田辺（キョウタナベ）,14.5,34.83,135.76
62016,大阪府,能勢（ノセ）,10.6,34.94833333333333,135.455
62046,大阪府,枚方（ヒラカタ）,14.4,34.80833333333333,135.67166666666665
62051,大阪府,豊中（トヨナカ）,13.9,34.78333333333333,135.43833333333333
62078,大阪府,大阪（オオサカ）,15.0,34.681666666666665,135.51833333333335
62078,大阪府,大阪（オオサカ）,15.0,34.675,135.54666666666665
62081,大阪府,生駒山（イコマヤマ）,9.2,34.675,135.67666666666668
62091,大阪府,堺（サカイ）,14.0,34.555,135.485
62096,大阪府,八尾（ヤオ）,14.2,34.596666666666664,135.6
62101,大阪府,関空島（カンクウジマ）,12.4,34.43333333333333,135.23166666666665
62131,大阪府,熊取（クマトリ）,12.2,34.385,135.35
63016,兵庫県,香住（カスミ）,10.1,35.625,134.62666666666667
63051,兵庫県,豊岡（トヨオカ）,10.7,35.535,134.82166666666666
63071,兵庫県,兎和野高原（ウワノコウゲン）,3.8,35.431666666666665,134.58333333333334
63121,兵庫県,和田山（ワダヤマ）,9.4,35.32333333333333,134.84833333333333
63201,兵庫県,生野（イクノ）,8.0,35.166666666666664,134.79166666666666
63216,兵庫県,柏原（カイバラ）,10.1,35.13666666666666,135.065
63251,兵庫県,一宮（イチノミヤ）,12.5,35.096666666666664,134.585
63321,兵庫県,福崎（フクサキ）,13.7,34.95,134.74833333333333
63331,兵庫県,西脇（ニシワキ）,12.9,34.998333333333335,134.99666666666667
63366,兵庫県,上郡（カミゴオリ）,14.5,34.858333333333334,134.37333333333333
63383,兵庫県,姫路（ヒメジ）,14.5,34.83833333333333,134.67
63411,兵庫県,三田（サンダ）,10.3,34.895,135.21166666666667
63461,兵庫県,三木（ミキ）,12.2,34.776666666666664,135.01333333333332
63491,兵庫県,家島（イエシマ）,13.0,34.67166666666667,134.52666666666667
63496,兵庫県,明石（アカシ）,14.3,34.68666666666667,134.87666666666667
63517,兵庫県,神戸空港（コウベクウコウ）,13.7,34.63166666666667,135.22333333333333
63518,兵庫県,神戸（コウベ）,13.3,34.696666666666665,135.21166666666667
63518,兵庫県,神戸（コウベ）,13.3,34.681666666666665,135.22
63551,兵庫県,郡家（グンゲ）,13.5,34.46666666666667,134.84833333333333
63571,兵庫県,洲本（スモト）,13.5,34.31,134.84833333333333
63588,兵庫県,南淡（ナンダン）,13.2,34.218333333333334,134.72
64036,奈良県,奈良（ナラ）,14.0,34.67333333333333,135.83666666666667
64036,奈良県,奈良（ナラ）,14.0,34.67333333333333,135.83166666666668
64041,奈良県,針（ハリ）,11.2,34.605,135.95166666666665
64101,奈良県,大宇陀（オオウダ）,12.3,34.48833333333334,135.93166666666667
64127,奈良県,五條（ゴジョウ）,13.0,34.38,135.73
64206,奈良県,上北山（カミキタヤマ）,15.2,34.13666666666666,136.005
64227,奈良県,風屋（カゼヤ）,15.0,34.045,135.78666666666666
65026,和歌山県,かつらぎ（カツラギ）,15.1,34.31,135.52833333333334
65036,和歌山県,友ケ島（トモガシマ）,15.4,34.28,134.99833333333333
65042,和歌山県,和歌山（ワカヤマ）,13.2,34.22833333333333,135.16333333333333
65042,和歌山県,和歌山（ワカヤマ）,13.2,34.22833333333333,135.16333333333333
65061,和歌山県,高野山（コウヤサン）,7.8,34.221666666666664,135.59
65121,和歌山県,清水（シミズ）,12.6,34.086666666666666,135.425
65162,和歌山県,龍神（リュウジン）,16.3,33.945,135.55666666666667
65201,和歌山県,川辺（カワベ）,13.5,33.89333333333333,135.21666666666667
65256,和歌山県,栗栖川（クリスガワ）,20.1,33.791666666666664,135.51333333333332
65276,和歌山県,新宮（シングウ）,16.3,33.68666666666667,135.97
65288,和歌山県,南紀白浜（ナンキシラハマ）,15.9,33.66166666666667,135.36333333333334
65306,和歌山県,西川（ニシカワ）,19.5,33.638333333333335,135.71
65356,和歌山県,潮岬（シオノミサキ）,15.6,33.45,135.75666666666666
66046,岡山県,上長田（カミナガタ）,4.1,35.29666666666667,133.725
66091,岡山県,千屋（チヤ）,5.0,35.10333333333333,133.435
66127,岡山県,奈義（ナギ）,10.7,35.111666666666665,134.17
66136,岡山県,今岡（イマオカ）,10.3,35.098333333333336,134.325
66171,岡山県,久世（クセ）,10.3,35.068333333333335,133.75333333333333
66186,岡山県,津山（ツヤマ）,11.6,35.06333333333333,134.00833333333333
66221,岡山県,新見（ニイミ）,9.7,34.943333333333335,133.51833333333335
66296,岡山県,福渡（フクワタリ）,13.0,34.86666666666667,133.90333333333334
66306,岡山県,和気（ワケ）,13.5,34.815,134.18333333333334
66336,岡山県,高梁（タカハシ）,12.8,34.791666666666664,133.61
66346,岡山県,日応寺（ニチオウジ）,12.7,34.75666666666667,133.855
66408,岡山県,岡山（オカヤマ）,14.5,34.685,133.925
66408,岡山県,岡山（オカヤマ）,14.5,34.66,133.915
66421,岡山県,虫明（ムシアゲ）,14.6,34.681666666666665,134.20666666666668
66446,岡山県,倉敷（クラシキ）,14.3,34.59,133.76833333333335
66481,岡山県,笠岡（カサオカ）,13.0,34.501666666666665,133.495
66501,岡山県,玉野（タマノ）,12.4,34.486666666666665,133.95
67016,広島県,高野（タカノ）,6.3,35.03333333333333,132.90166666666667
67106,広島県,三次（ミヨシ）,12.3,34.81166666666667,132.85
67116,広島県,庄原（ショウバラ）,13.2,34.86,133.02333333333334
67151,広島県,大朝（オオアサ）,11.5,34.76833333333333,132.46333333333334
67191,広島県,油木（ユキ）,9.5,34.763333333333335,133.27833333333334
67212,広島県,加計（カケ）,17.0,34.61,132.32
67292,広島県,三入（ミイリ）,14.8,34.545,132.53
67316,広島県,世羅（セラ）,13.4,34.583333333333336,133.05
67326,広島県,府中（フチュウ）,14.8,34.56166666666667,133.23166666666665
67376,広島県,東広島（ヒガシヒロシマ）,13.3,34.416666666666664,132.7
67386,広島県,本郷（ホンゴウ）,13.0,34.435,132.91833333333332
67401,広島県,福山（フクヤマ）,13.2,34.446666666666665,133.24666666666667
67421,広島県,廿日市津田（ハツカイチツタ）,14.2,34.365,132.19
67437,広島県,広島（ヒロシマ）,15.3,34.39833333333333,132.46166666666667
67437,広島県,広島（ヒロシマ）,15.3,34.39833333333333,132.46333333333334
67461,広島県,竹原（タケハラ）,12.7,34.33,132.98166666666665
67471,広島県,生口島（イクチジマ）,10.8,34.278333333333336,133.12333333333333
67496,広島県,大竹（オオタケ）,14.3,34.221666666666664,132.22
67511,広島県,呉（クレ）,13.4,34.24,132.55
67576,広島県,呉市蒲刈（クレシカマガリ）,13.6,34.165,132.74833333333333
68022,島根県,西郷（サイゴウ）,9.0,36.20333333333333,133.33333333333334
68046,島根県,西郷岬（サイゴウミサキ）,9.4,36.178333333333335,133.32333333333332
68056,島根県,海士（アマ）,8.7,36.096666666666664,133.09666666666666
68091,島根県,鹿島（カシマ）,9.2,35.52,132.98333333333332
68121,島根県,斐川（ヒカワ）,10.0,35.413333333333334,132.89
68132,島根県,松江（マツエ）,10.3,35.45666666666666,133.065
68156,島根県,出雲（イズモ）,10.3,35.33166666666666,132.73
68246,島根県,大田（オオダ）,10.0,35.19,132.49666666666667
68261,島根県,掛合（カケヤ）,8.9,35.196666666666665,132.815
68276,島根県,横田（ヨコタ）,6.1,35.17333333333333,133.10333333333332
68306,島根県,赤名（アカナ）,8.6,35.001666666666665,132.71166666666667
68351,島根県,川本（カワモト）,12.3,34.97666666666667,132.49166666666667
68376,島根県,浜田（ハマダ）,10.9,34.89666666666667,132.07
68401,島根県,瑞穂（ミズホ）,11.0,34.85333333333333,132.53
68431,島根県,弥栄（ヤサカ）,10.1,34.776666666666664,132.10833333333332
68456,島根県,高津（タカツ）,11.4,34.675,131.79
68462,島根県,益田（マスダ）,11.5,34.68666666666667,131.85
68516,島根県,津和野（ツワノ）,13.1,34.461666666666666,131.77
68541,島根県,吉賀（ヨシカ）,11.1,34.391666666666666,131.89333333333335
69006,鳥取県,境（サカイ）,9.9,35.54333333333334,133.235
69021,鳥取県,塩津（シオツ）,9.7,35.52333333333333,133.56666666666666
69041,鳥取県,青谷（アオヤ）,10.2,35.52,133.99666666666667
69052,鳥取県,湖山（コヤマ）,10.1,35.53,134.165
69061,鳥取県,岩井（イワイ）,8.9,35.55833333333333,134.36
69076,鳥取県,米子（ヨナゴ）,10.1,35.43333333333333,133.33833333333334
69101,鳥取県,倉吉（クラヨシ）,9.4,35.473333333333336,133.83833333333334
69122,鳥取県,鳥取（トットリ）,11.2,35.486666666666665,134.23833333333334
69246,鳥取県,智頭（チズ）,7.3,35.263333333333335,134.24
69271,鳥取県,茶屋（チャヤ）,4.0,35.18666666666667,133.23
71066,徳島県,池田（イケダ）,12.5,34.02333333333333,133.795
71087,徳島県,穴吹（アナブキ）,14.9,34.04,134.15666666666667
71106,徳島県,徳島（トクシマ）,14.0,34.06666666666667,134.57333333333332
71106,徳島県,徳島（トクシマ）,14.0,34.06666666666667,134.57166666666666
71192,徳島県,東祖谷（ヒガシイヤ）,11.3,33.87,133.97833333333332
71231,徳島県,蒲生田（カモダ）,12.2,33.836666666666666,134.74166666666667
71251,徳島県,木頭（キトウ）,16.0,33.77166666666667,134.19833333333332
71266,徳島県,日和佐（ヒワサ）,15.7,33.73166666666667,134.53833333333333
71291,徳島県,海陽（カイヨウ）,18.3,33.611666666666665,134.355
72061,香川県,内海（ウチノミ）,12.8,34.471666666666664,134.27333333333334
72086,香川県,高松（タカマツ）,14.1,34.318333333333335,134.05333333333334
72111,香川県,多度津（タドツ）,13.0,34.275,133.75166666666667
72121,香川県,滝宮（タキノミヤ）,13.0,34.236666666666665,133.92333333333335
72126,香川県,香南（コウナン）,12.2,34.21333333333333,134.015
72146,香川県,引田（ヒケタ）,13.2,34.21333333333333,134.40666666666667
72161,香川県,財田（サイタ）,13.0,34.12,133.77166666666668
73001,愛媛県,大三島（オオミシマ）,13.8,34.25,133.00666666666666
73076,愛媛県,今治（イマバリ）,12.8,34.053333333333335,132.975
73126,愛媛県,西条（サイジョウ）,12.2,33.915,133.08
73141,愛媛県,新居浜（ニイハマ）,12.9,33.93666666666667,133.33833333333334
73151,愛媛県,四国中央（シコクチュウオウ）,11.3,33.98166666666667,133.58166666666668
73166,愛媛県,松山（マツヤマ）,15.2,33.843333333333334,132.77666666666667
73166,愛媛県,松山（マツヤマ）,15.2,33.835,132.79333333333332
73168,愛媛県,松山南吉田（マツヤマミナミヨシダ）,12.5,33.82666666666667,132.69833333333332
73256,愛媛県,長浜（ナガハマ）,10.3,33.61666666666667,132.48
73276,愛媛県,久万（クマ）,11.8,33.663333333333334,132.895
73306,愛媛県,大洲（オオズ）,12.9,33.50833333333333,132.535
73341,愛媛県,瀬戸（セト）,10.3,33.446666666666665,132.25666666666666
73406,愛媛県,宇和（ウワ）,12.6,33.36666666666667,132.50333333333333
73442,愛媛県,宇和島（ウワジマ）,16.1,33.22666666666667,132.55166666666668
73446,愛媛県,近永（チカナガ）,15.3,33.25333333333333,132.675
73516,愛媛県,御荘（ミショウ）,16.5,32.96333333333333,132.57
74056,高知県,本川（ホンガワ）,11.0,33.765,133.33833333333334
74071,高知県,本山（モトヤマ）,13.4,33.75333333333333,133.575
74136,高知県,大栃（オオドチ）,16.8,33.69833333333333,133.875
74182,高知県,高知（コウチ）,18.4,33.56666666666667,133.54833333333335
74182,高知県,高知（コウチ）,18.4,33.56666666666667,133.55166666666668
74187,高知県,後免（ゴメン）,16.0,33.59,133.64333333333335
74188,高知県,南国日章（ナンコクニッショウ）,17.4,33.545,133.66833333333332
74271,高知県,安芸（アキ）,16.6,33.48833333333334,133.93333333333334
74296,高知県,梼原（ユスハラ）,14.9,33.39,132.92166666666665
74311,高知県,須崎（スサキ）,18.3,33.385,133.27666666666667
74361,高知県,窪川（クボカワ）,18.3,33.20666666666666,133.12833333333333
74372,高知県,室戸岬（ムロトミサキ）,14.3,33.251666666666665,134.17666666666668
74372,高知県,室戸岬（ムロトミサキ）,14.3,33.24666666666667,134.175
74381,高知県,江川崎（エカワサキ）,16.5,33.17,132.79166666666666
74436,高知県,佐賀（サガ）,16.4,33.07833333333333,133.10166666666666
74447,高知県,宿毛（スクモ）,16.1,32.905,132.71666666666667
74456,高知県,中村（ナカムラ）,18.4,32.99,132.92
74516,高知県,清水（シミズ）,16.1,32.721666666666664,133.01
81011,山口県,須佐（スサ）,10.8,34.615,131.62333333333333
81071,山口県,萩（ハギ）,11.8,34.41,131.405
81116,山口県,油谷（ユヤ）,10.8,34.37,131.055
81151,山口県,徳佐（トクサ）,11.2,34.39833333333333,131.725
81196,山口県,秋吉台（アキヨシダイ）,10.7,34.235,131.30666666666667
81231,山口県,広瀬（ヒロセ）,15.9,34.26166666666666,131.95166666666665
81266,山口県,豊田（トヨタ）,11.4,34.18666666666667,131.07666666666665
81286,山口県,山口（ヤマグチ）,14.8,34.16166666666667,131.46166666666667
81321,山口県,岩国（イワクニ）,14.0,34.155,132.17833333333334
81371,山口県,防府（ホウフ）,15.4,34.04,131.53333333333333
81386,山口県,下松（クダマツ）,13.2,34.01,131.87166666666667
81397,山口県,玖珂（クガ）,16.0,34.095,132.075
81428,山口県,下関（シモノセキ）,12.8,33.94833333333333,130.925
81428,山口県,下関（シモノセキ）,12.8,33.95666666666666,130.93833333333333
81436,山口県,宇部（ウベ）,14.8,33.93,131.27833333333334
81481,山口県,柳井（ヤナイ）,13.0,33.958333333333336,132.11333333333334
81486,山口県,安下庄（アゲノショウ）,14.3,33.903333333333336,132.29333333333332
82046,福岡県,宗像（ムナカタ）,11.8,33.80833333333333,130.53833333333333
82056,福岡県,八幡（ヤハタ）,12.2,33.85166666666667,130.74333333333334
82068,福岡県,空港北町（クウコウキタマチ）,12.9,33.845,131.035
82101,福岡県,行橋（ユクハシ）,14.4,33.71333333333333,130.975
82136,福岡県,飯塚（イイヅカ）,14.0,33.651666666666664,130.69333333333333
82171,福岡県,前原（マエバル）,12.8,33.56,130.19
82182,福岡県,福岡（フクオカ）,14.0,33.58166666666666,130.375
82182,福岡県,福岡（フクオカ）,14.0,33.58166666666666,130.37666666666667
82186,福岡県,博多（ハカタ）,14.1,33.583333333333336,130.45166666666665
82191,福岡県,太宰府（ダザイフ）,14.6,33.49666666666667,130.49
82206,福岡県,添田（ソエダ）,13.8,33.55833333333333,130.855
82261,福岡県,朝倉（アサクラ）,14.3,33.406666666666666,130.695
82306,福岡県,久留米（クルメ）,15.4,33.303333333333335,130.49333333333334
82317,福岡県,黒木（クロギ）,15.7,33.225,130.645
82361,福岡県,大牟田（オオムタ）,15.6,33.00666666666667,130.46666666666667
83021,大分県,国見（クニミ）,12.7,33.678333333333335,131.575
83051,大分県,中津（ナカツ）,12.7,33.586666666666666,131.245
83061,大分県,豊後高田（ブンゴタカダ）,11.9,33.57,131.43333333333334
83106,大分県,院内（インナイ）,13.6,33.42,131.31666666666666
83121,大分県,杵築（キツキ）,15.1,33.416666666666664,131.59666666666666
83126,大分県,武蔵（ムサシ）,14.9,33.47833333333333,131.73666666666668
83137,大分県,日田（ヒタ）,16.2,33.321666666666665,130.92833333333334
83191,大分県,玖珠（クス）,13.0,33.291666666666664,131.155
83201,大分県,湯布院（ユフイン）,12.4,33.25333333333333,131.34666666666666
83216,大分県,大分（オオイタ）,13.9,33.235,131.61833333333334
83341,大分県,犬飼（イヌカイ）,15.3,33.065,131.63166666666666
83371,大分県,竹田（タケタ）,15.2,32.973333333333336,131.39833333333334
83401,大分県,佐伯（サイキ）,13.5,32.95,131.90166666666667
83431,大分県,宇目（ウメ）,14.8,32.845,131.675
83476,大分県,蒲江（カマエ）,15.1,32.795,131.92333333333335
84012,長崎県,鰐浦（ワニウラ）,12.4,34.69833333333333,129.445
84072,長崎県,厳原（イヅハラ）,12.5,34.196666666666665,129.29166666666666
84076,長崎県,美津島（ミツシマ）,11.8,34.285,129.33
84121,長崎県,芦辺（アシベ）,10.9,33.8,129.72166666666666
84122,長崎県,石田（イシダ）,11.6,33.748333333333335,129.785
84171,長崎県,平戸（ヒラド）,12.2,33.36,129.55
84183,長崎県,松浦（マツウラ）,12.2,33.34166666666667,129.71166666666667
84266,長崎県,佐世保（サセボ）,13.9,33.15833333333333,129.72666666666666
84306,長崎県,西海（サイカイ）,14.7,33.013333333333335,129.65166666666667
84341,長崎県,有川（アリカワ）,13.4,32.98166666666667,129.11833333333334
84371,長崎県,大村（オオムラ）,15.6,32.916666666666664,129.91333333333333
84496,長崎県,長崎（ナガサキ）,14.4,32.733333333333334,129.86666666666667
84519,長崎県,雲仙岳（ウンゼンダケ）,12.4,32.736666666666665,130.26166666666666
84519,長崎県,雲仙岳（ウンゼンダケ）,12.4,32.736666666666665,130.25
84523,長崎県,島原（シマバラ）,14.7,32.76,130.36166666666668
84536,長崎県,福江（フクエ）,14.2,32.693333333333335,128.82666666666665
84537,長崎県,上大津（カミオオヅ）,14.2,32.665,128.83166666666668
84561,長崎県,口之津（クチノツ）,15.8,32.611666666666665,130.19333333333333
84597,長崎県,脇岬（ワキミサキ）,15.1,32.58166666666666,129.77666666666667
85033,佐賀県,唐津（カラツ）,14.0,33.458333333333336,129.955
85116,佐賀県,伊万里（イマリ）,13.4,33.266666666666666,129.87833333333333
85142,佐賀県,佐賀（サガ）,15.3,33.265,130.305
85161,佐賀県,嬉野（ウレシノ）,13.7,33.11666666666667,129.995
85166,佐賀県,白石（シロイシ）,14.6,33.18333333333333,130.14833333333334
85176,佐賀県,川副（カワソエ）,15.9,33.14833333333333,130.30166666666668
86006,熊本県,鹿北（カホク）,15.8,33.115,130.69166666666666
86066,熊本県,南小国（ミナミオグニ）,13.7,33.10333333333333,131.06666666666666
86086,熊本県,岱明（タイメイ）,16.1,32.915,130.51166666666666
86101,熊本県,菊池（キクチ）,16.6,32.945,130.78166666666667
86111,熊本県,阿蘇乙姫（アソオトヒメ）,14.5,32.946666666666665,131.04
86141,熊本県,熊本（クマモト）,16.7,32.81333333333333,130.70666666666668
86141,熊本県,熊本（クマモト）,16.7,32.821666666666665,130.715
86146,熊本県,益城（マシキ）,16.3,32.836666666666666,130.855
86157,熊本県,南阿蘇（ミナミアソ）,14.7,32.83166666666666,131.01333333333332
86161,熊本県,高森（タカモリ）,14.1,32.821666666666665,131.125
86216,熊本県,三角（ミスミ）,13.2,32.611666666666665,130.47833333333332
86236,熊本県,甲佐（コウサ）,17.1,32.67166666666667,130.81666666666666
86271,熊本県,松島（マツシマ）,13.9,32.515,130.44666666666666
86316,熊本県,本渡（ホンド）,15.4,32.468333333333334,130.18
86336,熊本県,八代（ヤツシロ）,15.2,32.473333333333336,130.60666666666665
86451,熊本県,水俣（ミナマタ）,14.0,32.205,130.40666666666667
86467,熊本県,人吉（ヒトヨシ）,17.0,32.21666666666667,130.755
86477,熊本県,上（ウエ）,17.4,32.225,130.905
86491,熊本県,牛深（ウシブカ）,16.9,32.196666666666665,130.02666666666667
87041,宮崎県,高千穂（タカチホ）,15.9,32.711666666666666,131.29
87066,宮崎県,古江（フルエ）,15.8,32.711666666666666,131.82
87071,宮崎県,鞍岡（クラオカ）,14.7,32.64333333333333,131.15666666666667
87141,宮崎県,延岡（ノベオカ）,17.2,32.58166666666666,131.65666666666667
87141,宮崎県,延岡（ノベオカ）,17.2,32.57833333333333,131.63333333333333
87181,宮崎県,日向（ヒュウガ）,19.1,32.40833333333333,131.6
87206,宮崎県,神門（ミカド）,19.9,32.385,131.33166666666668
87231,宮崎県,西米良（ニシメラ）,20.5,32.24,131.15166666666667
87293,宮崎県,高鍋（タカナベ）,17.5,32.123333333333335,131.475
87301,宮崎県,加久藤（カクトウ）,17.7,32.04666666666667,130.81
87331,宮崎県,西都（サイト）,18.3,32.06333333333333,131.41333333333333
87352,宮崎県,小林（コバヤシ）,18.2,32.0,130.95333333333335
87376,宮崎県,宮崎（ミヤザキ）,17.0,31.938333333333333,131.41333333333333
87406,宮崎県,田野（タノ）,16.4,31.843333333333334,131.30833333333334
87412,宮崎県,赤江（アカエ）,15.9,31.876666666666665,131.44833333333332
87426,宮崎県,都城（ミヤコノジョウ）,18.3,31.73,131.08166666666668
87492,宮崎県,油津（アブラツ）,16.3,31.578333333333333,131.40666666666667
87492,宮崎県,油津（アブラツ）,16.3,31.596666666666668,131.40833333333333
87501,宮崎県,串間（クシマ）,15.7,31.465,131.22
88061,鹿児島県,阿久根（アクネ）,13.7,32.026666666666664,130.2
88081,鹿児島県,大口（オオクチ）,15.9,32.04666666666667,130.62666666666667
88107,鹿児島県,さつま柏原（サツマカシワバル）,16.0,31.916666666666668,130.455
88131,鹿児島県,中甑（ナカコシキ）,14.3,31.835,129.86666666666667
88151,鹿児島県,川内（センダイ）,16.5,31.833333333333332,130.315
88166,鹿児島県,溝辺（ミゾベ）,15.9,31.803333333333335,130.71833333333333
88261,鹿児島県,東市来（ヒガシイチキ）,16.5,31.668333333333333,130.32833333333335
88286,鹿児島県,牧之原（マキノハラ）,13.6,31.661666666666665,130.84333333333333
88317,鹿児島県,鹿児島（カゴシマ）,16.9,31.555,130.54666666666665
88331,鹿児島県,輝北（キホク）,15.1,31.588333333333335,130.855
88371,鹿児島県,加世田（カセダ）,15.2,31.415,130.325
88406,鹿児島県,志布志（シブシ）,17.1,31.47833333333333,131.095
88432,鹿児島県,喜入（キイレ）,16.3,31.386666666666667,130.54
88442,鹿児島県,鹿屋（カノヤ）,16.0,31.391666666666666,130.86333333333334
88447,鹿児島県,肝付前田（キモツキマエダ）,18.5,31.34,130.93833333333333
88466,鹿児島県,枕崎（マクラザキ）,16.0,31.27166666666667,130.29166666666666
88486,鹿児島県,指宿（イブスキ）,17.7,31.25,130.63666666666666
88506,鹿児島県,内之浦（ウチノウラ）,17.3,31.276666666666667,131.055
88536,鹿児島県,田代（タシロ）,14.3,31.198333333333334,130.84333333333333
88612,鹿児島県,種子島（タネガシマ）,14.7,30.72,130.98166666666665
88621,鹿児島県,中種子（ナカタネ）,13.6,30.605,130.99166666666667
88666,鹿児島県,上中（カミナカ）,15.4,30.406666666666666,130.90166666666667
88686,鹿児島県,屋久島（ヤクシマ）,15.9,30.385,130.65833333333333
88706,鹿児島県,尾之間（オノアイダ）,17.3,30.235,130.555
88736,鹿児島県,中之島（ナカノシマ）,15.0,29.84,129.86666666666667
88821,鹿児島県,笠利（カサリ）,18.3,28.43,129.71166666666667
88837,鹿児島県,名瀬（ナゼ）,17.1,28.385,129.49333333333334
88851,鹿児島県,喜界島（キカイジマ）,17.3,28.32,129.92666666666668
88901,鹿児島県,古仁屋（コニヤ）,17.5,28.143333333333334,129.315
88931,鹿児島県,天城（アマギ）,18.3,27.835,128.88
88956,鹿児島県,伊仙（イセン）,17.4,27.676666666666666,128.97333333333333
88971,鹿児島県,沖永良部（オキノエラブ）,18.1,27.431666666666665,128.705
88986,鹿児島県,与論島（ヨロンジマ）,18.8,27.043333333333333,128.40166666666667
91011,沖縄県,伊是名（イゼナ）,18.7,26.948333333333334,127.94
91021,沖縄県,奥（オク）,16.7,26.835,128.27166666666668
91107,沖縄県,名護（ナゴ）,19.2,26.593333333333334,127.965
91141,沖縄県,北原（キタハラ）,20.9,26.363333333333333,126.71333333333334
91146,沖縄県,久米島（クメジマ）,20.4,26.336666666666666,126.80333333333333
91166,沖縄県,宮城島（ミヤギジマ）,18.2,26.363333333333333,127.97166666666666
91181,沖縄県,渡嘉敷（トカシキ）,17.3,26.21,127.36333333333333
91197,沖縄県,那覇（ナハ）,19.4,26.206666666666667,127.68666666666667
91236,沖縄県,安次嶺（アシミネ）,20.3,26.19333333333333,127.63833333333334
91241,沖縄県,糸数（イトカズ）,17.4,26.153333333333332,127.765
92006,沖縄県,北大東（キタダイトウ）,19.2,25.943333333333335,131.32666666666665
92011,沖縄県,南大東（ミナミダイトウ）（南大東島（ミナミダイトウジマ））,19.6,25.828333333333333,131.22833333333332
92012,沖縄県,旧東（キュウトウ）,19.2,25.846666666666668,131.26333333333332
93012,沖縄県,下地島（シモジシマ）,22.4,24.826666666666668,125.14333333333333
93041,沖縄県,宮古島（ミヤコジマ）,21.5,24.793333333333333,125.27833333333334
93042,沖縄県,鏡原（カガミハラ）,22.2,24.781666666666666,125.295
93062,沖縄県,仲筋（ナカスジ）,22.0,24.653333333333332,124.675
94001,沖縄県,伊原間（イバルマ）,21.9,24.506666666666668,124.28
94011,沖縄県,所野（トコロノ）,22.1,24.466666666666665,122.97833333333334
94017,沖縄県,与那国島（ヨナグニジマ）,21.3,24.466666666666665,123.01
94062,沖縄県,西表島（イリオモテジマ）,22.4,24.426666666666666,123.765
94081,沖縄県,石垣島（イシガキジマ）,22.2,24.336666666666666,124.16333333333333
94086,沖縄県,盛山（モリヤマ）,23.2,24.395,124.245
94101,沖縄県,大原（オオハラ）,22.1,24.265,123.87166666666667
94116,沖縄県,波照間（ハテルマ）,23.0,24.055,123.76666666666667
